place_id,id,name,lat,lng,rating,user_ratings_total,vicinity,types
ChIJk54PuAGqAWARwEgz_9o-nM0,9fb1b28c4a4f4af98f267bd2cd5165d0d23a1cf7,Tenryuji Temple,35.0157168,135.6737441,4.4,5660,"68 Sagatenryuji Susukinobabacho, Ukyo Ward, Kyoto","['place_of_worship', 'point_of_interest', 'establishment']"
ChIJHw9S2xqqAWARqO_fgtu1Nz4,4e7a59f29e5447640c9c6e344a00752e1d8f3808,Jōjakkōji Temple常寂光寺,35.0196114,135.6689385,4.6,950,"3 Sagaogurayama Oguracho, Ukyo Ward, Kyoto","['place_of_worship', 'point_of_interest', 'establishment']"
ChIJiRisBgGqAWARMFGM32XGEyo,189f5b85ff4e2368da199888287ff75bccf0e440,Hogonin Temple,35.014788,135.673706,4.3,324,"Kyoto, Ukyo Ward, 嵯峨天龍寺芒ノ馬場町36","['place_of_worship', 'point_of_interest', 'establishment']"
ChIJX1UlZhqqAWARvCl54vRv0GE,66002fb3212e0ba4ddc7be90586ad326ffaf2482,Nison-in Temple,35.0216324,135.6688715,4.2,398,"２７ Saganisonin Monzen Chojincho, Ukyo Ward, Kyoto","['place_of_worship', 'point_of_interest', 'establishment']"
ChIJiXckvQ-qAWARgn5H8puQ3sU,3945b095dffacebc75491c5dd6ecf662be8787f7,Senkoji Temple,35.015801,135.665565,4.5,165,"62 Arashiyama Nakaoshitacho, Nishikyo Ward, Kyoto","['place_of_worship', 'point_of_interest', 'establishment']"
ChIJMVbL5RyqAWARw8qpX6rzPkI,7c1766aff980e4f5f39dfea0e37e484169f4883c,Houkyō-in Temple,35.0225121,135.6735724,4.3,89,"9 Sagashakado Monzen Minamichuincho, Ukyo Ward, Kyoto","['place_of_worship', 'point_of_interest', 'establishment']"
ChIJrUo_dAGqAWAR3VNT-qi1jW4,d5cb95440f4d6b1e96eeee71cef9dd10874d9477,Shoganji Temple,35.016255,135.6749029,3.8,8,"Ukyo Ward, Kyoto","['place_of_worship', 'point_of_interest', 'establishment']"
ChIJOWaHwQGqAWARPiajLTq4C3M,be7239a98f8a6e71e52457f49b5be45d2b116a3d,Jisai-in Temple,35.016224,135.675392,3.7,9,"６８ Sagatenryuji Susukinobabacho, Ukyo Ward, Kyoto","['place_of_worship', 'point_of_interest', 'establishment']"
ChIJ0QzTAB2qAWAR1KIqrbZxO38,800742fe64e53e3e86e8391b40602f8d1f67b3e8,Seiryoji (Sagashaka-do) Temple,35.0237359,135.6745151,4.2,443,"46 Sagashakadofujinokicho, Ukyo Ward, Kyoto","['place_of_worship', 'point_of_interest', 'establishment']"
ChIJ3UMrWheqAWARpknNL6pPmk8,0630d6c026863309ea03ceb08b73492a37628d80,Takiguchi-dera Temple,35.0230168,135.6665524,3.1,36,"10-4 Sagakameyamacho, Ukyo Ward, Kyoto","['place_of_worship', 'point_of_interest', 'establishment']"
ChIJs0TcWxeqAWARRqWacVEoXL4,740a3c1a0f484957822746e1017d9afa6466cb8d,Giouji Temple,35.0234963,135.6668196,4.4,592,"３２ Sagatoriimoto Kozakacho, Ukyo Ward, Kyoto","['place_of_worship', 'point_of_interest', 'establishment']"
ChIJ8wDtuVQHAWARG8g2tMLbRA0,dff8adebc299828eafc2aa9f64f1113d6b19f853,Hōrinji Temple,35.0101205,135.6774639,4.1,364,"Arashiyama Kokuzoyamacho, Nishikyo Ward, Kyoto","['place_of_worship', 'point_of_interest', 'establishment']"
ChIJpSN6zg-qAWARrCz2GasRgzo,c02894ea6d5ae50d96e86d5b9d5e6cb194bce6e5,Arashiyama Myoken-dō Temple,35.0164143,135.6648343,4.4,11,"Arashiyama Genrokuzancho, Nishikyo Ward, Kyoto","['place_of_worship', 'point_of_interest', 'establishment']"
ChIJnziLgwOqAWARp5Blzdp_a30,3528c759a6c4351bf182be1a6c8506b5a254d07e,Shokaku-ji Temple,35.017879,135.671912,4.3,3,"12 Saganonomiyacho, Ukyo Ward, Kyoto","['place_of_worship', 'point_of_interest', 'establishment']"
ChIJfx5IfgOqAWARs-wz4ohN2m4,513cd143f894fa67c57d8b46ef48f2539b83a7f8,Anryu-ji Temple,35.0186831,135.6718032,3.2,5,"11-5 Saganonomiyacho, Ukyo Ward, Kyoto","['place_of_worship', 'point_of_interest', 'establishment']"
ChIJAUtxThqqAWARMdRpuLzpTG0,5fb112bed304f3d678320a287c0a4eab2306fb6d,Taeyukuon Temple,35.0218385,135.6692015,3.8,6,"16 Saganisonin Monzen Chojincho, Ukyo Ward, Kyoto","['place_of_worship', 'point_of_interest', 'establishment']"
ChIJa8xcuRuqAWARj9AxhKgBlkI,85aaf88993b80984773cf384f531f6b7a62fb1f5,Kannon-in Temple,35.022559,135.67007,3.7,3,"5-2 Saganisonin Monzen Ojoincho, Ukyo Ward, Kyoto","['place_of_worship', 'point_of_interest', 'establishment']"
ChIJd2qd6hqqAWARdGhj_Pm63Ao,5bc862140c99700ba9726293a3656af35d98ddbf,Jyōjakkō-ji Temple Kaizan-do,35.0197244,135.6681722,4,1,"Sagaogurayamacho, Ukyo Ward, Kyoto","['place_of_worship', 'point_of_interest', 'establishment']"
ChIJNe6XkxuqAWARdYhbyEdJvXg,1ce5bcf5a975e46c99500f9cd2af480cf98f3ebb,Enrian Temple,35.0229879,135.6708346,4,62,"2 Saganisonin Monzen Zenkoji Yamacho, Ukyo Ward, Kyoto","['place_of_worship', 'point_of_interest', 'establishment']"
ChIJ53rw2wGqAWAR13Z-W-53KLI,7913823af509b0e00ed9f825a9a4d5482654eb19,Kogenji Temple,35.016296,135.675945,3.9,39,"65 Sagatenryuji Susukinobabacho, Ukyo Ward, Kyoto","['place_of_worship', 'point_of_interest', 'establishment']"
ChIJt8K9e_-pAWARRnwI-hoXxP4,aa2b9f2e87bc9b54ec36c39d0b08433281104966,Sanshu-in Temple,35.016241,135.676719,3.6,18,"64 Sagatenryuji Susukinobabacho, Ukyo Ward, Kyoto","['place_of_worship', 'point_of_interest', 'establishment']"
ChIJ-xMnJRqqAWAR0dkLSpwvftU,b55647732377364c819431ad329280906ebf4f02,Saga Murakumo Betsu-in Temple,35.022712,135.668526,4.1,9,"22 Saganisonin Monzen Ojoincho, Ukyo Ward, Kyoto","['place_of_worship', 'point_of_interest', 'establishment']"
ChIJh7clFh2qAWARbLwub9u4H_w,3a48e7330e616ade866c47b68c40bd685e9a26f9,Seiryō-ji Temple Niou-mon Gate,35.0227682,135.674762,4.7,15,"Kyoto, Ukyo Ward, Sagashakadofujinokicho, Unnamed Road","['place_of_worship', 'point_of_interest', 'establishment']"
ChIJlT9-df-pAWARGSc_TmhGDGU,6062d6f8b08a51645ef8942386942fbab4d45a06,Nanhou-in Temple,35.0160154,135.6769283,3.6,7,"64 Sagatenryuji Susukinobabacho, Ukyo Ward, Kyoto","['place_of_worship', 'point_of_interest', 'establishment']"
ChIJgbCl_xyqAWARYmyvirTRR7o,e321c44b436f2e58a6a43c5a15ecd4e3e6ab64b0,Yakushi-ji Temple,35.0233416,135.6738681,4.3,3,"46 Sagashakadofujinokicho, Ukyo Ward, Kyoto","['place_of_worship', 'point_of_interest', 'establishment']"
ChIJ3_zc5xmqAWARu7vVjfwCC2A,168afe756f551770c52b5ab8bedc6f29de3b9f2f,Danrinji Temple,35.02375000000001,135.667445,2,23,"2-10 Sagatoriimoto Kozakacho, Ukyo Ward, Kyoto","['place_of_worship', 'point_of_interest', 'establishment']"
ChIJsQquhRmqAWAR0BbJuzW-wdg,0afb18a76705acf80f2ccfc58d66340e72e0dc96,Shouan-in Temple,35.0237766,135.6689367,4.1,25,"22 Saganisonin Monzen Zenkoji Yamacho, Ukyo Ward, Kyoto","['place_of_worship', 'point_of_interest', 'establishment']"
ChIJlT9-df-pAWARDSewah0asFw,3fae96600594c07ab31305c704cd9b2b9b458e2f,Kongo-in Temple,35.016171,135.677367,4,8,"14 Sagatenryuji Kitatsukurimichicho, Ukyo Ward, Kyoto","['place_of_worship', 'point_of_interest', 'establishment']"
ChIJT7zgwBqqAWAR_kxj3EjQWX4,7ed14ed7ea8613a89c5fa68b2e647bb7776e6a16,Tahoto Tower,35.0194511,135.6681879,4.5,13,"3 Sagaogurayama Oguracho, Ukyo Ward, Kyoto","['place_of_worship', 'point_of_interest', 'establishment']"
ChIJuaeJMwKqAWAR_YOYeQIx9Lc,f3120ebe8578a10a965d1d39c0fc2da2f41bcce4,Nonomiya Shrine,35.0177918,135.6741863,4,1154,"1 Saganomiyanomotocho, Ukyo Ward, Kyoto","['place_of_worship', 'point_of_interest', 'establishment']"
ChIJh-r_1VQHAWARVGdKDtfEeH4,78f94c8848910b913ea86698993e07607d9e8225,Ichitani-Munakata-Jinja Shrine,35.0114148,135.6764592,3.7,18,"61 Arashiyama Nakaoshitacho, Nishikyo Ward, Kyoto","['place_of_worship', 'point_of_interest', 'establishment']"
ChIJ48cG8ASqAWAREjzai1soV-o,625ec1d97ad93f417609c1b54edaf75310d48937,Mikami-jinja Shrine,35.01766,135.6697769,4,173,"10-2 Sagaogurayama Tabuchiyamacho, Ukyo Ward, Kyoto","['place_of_worship', 'point_of_interest', 'establishment']"
ChIJdXdylqoAAWARtr3vq-I9P-E,e7d5fc9223bc2065f8496f7b5656abd95f2815cc,Zaō Daigongen Shrine,35.0121019,135.6750759,5,1,"Arashiyama Genrokuzancho, Nishikyo Ward, Kyoto","['place_of_worship', 'point_of_interest', 'establishment']"
ChIJf1542P-pAWARO2JatpmdOcY,41ff40c64c56adb5c37b2f53b071ffad05fd709c,Oi-Jinja Shrine,35.0142528,135.6779996,3.5,14,"36 Sagatenryuji Tsukurimichicho, Ukyo Ward, Kyoto","['place_of_worship', 'point_of_interest', 'establishment']"
ChIJV8NWZ1UHAWARjGLgxj3KF6g,2e00ae47fa2c678151331bf6ffd3b3e2db5cca47,Kurumazaki-jinja Shrine Arashiyama Tongu,35.0137309,135.677542,3.7,6,"1-5 Sagatenryuji Susukinobabacho, Ukyo Ward, Kyoto","['place_of_worship', 'point_of_interest', 'establishment']"
ChIJv-f7kBmqAWARnkDZT7IdLQo,44ea456aedc0d4be7b5776810efb584f70b9d38c,Suisei Daijin Shrine,35.0239285,135.6685322,4,5,"Ukyo Ward, Kyoto","['place_of_worship', 'point_of_interest', 'establishment']"
ChIJgRXwKlUHAWARJrmEX3l6814,8b3544d78438eb99227c7d6fdcbae6dfd909b1cb,Matsunoo Shrine,35.0114148,135.6764592,0,0,"61 Arashiyama Nakaoshitacho, Nishikyo Ward, Kyoto","['place_of_worship', 'point_of_interest', 'establishment']"
ChIJx1jrnVQHAWARrRnhRTp-yL4,ea95122030cb7e0b25d41c7a1ad7fc47714526ac,Dendengu,35.0098054,135.6778933,4.1,64,"４２-25 Arashiyama Nakaoshitacho, Nishikyo Ward, Kyoto","['place_of_worship', 'point_of_interest', 'establishment']"
ChIJ7XekrFMHAWARUei7TntI-nc,1f72dda958b7bfba35be26d97fce184aa663379d,Kongō-ji Temple,35.0080845,135.6788269,4,3,"10-2 Arashiyama Yamadacho, Nishikyo Ward, Kyoto","['place_of_worship', 'point_of_interest', 'establishment']"
ChIJ9dYb6FcHAWARca4ObcCulfA,7f8ea39f304653a7a2f632bc46cf61976ed1bf7d,Rokuo-in Temple,35.0163808,135.6845497,4.3,120,"24 Sagakitaboricho, Ukyo Ward, Kyoto","['place_of_worship', 'point_of_interest', 'establishment']"
ChIJBXg5K_6pAWARfvg61PmTyP8,2dbb7759c690ca00317baf3eb0c7dec752275ea4,Rinsen-ji Temple,35.0149913,135.6792252,4.1,44,"33 Sagatenryuji Tsukurimichicho, Ukyo Ward, Kyoto","['place_of_worship', 'point_of_interest', 'establishment']"
ChIJ4VCjjv2pAWARHwhh2-yIUBc,45643ef47c580c320af34d1b27e166419ecad75a,Shinjozan Myorinji Temple,35.0166793,135.6825892,0,0,"14-1 Sagatenryuji Imahoricho, Ukyo Ward, Kyoto","['place_of_worship', 'point_of_interest', 'establishment']"
ChIJ0Yeq4lUHAWARlSwOfJ6QNDE,2acdd754fc37ab3a46b866484fb2f21d3bf03b21,角倉稲荷神社,35.0151031,135.6810662,4.5,4,"Sagatenryuji Suminokuracho, Ukyo Ward, Kyoto","['place_of_worship', 'point_of_interest', 'establishment']"
ChIJwXtRj2EHAWAROcWgEnNZbhE,ec3fcef303c5200701be4eff5bc080eda3804b77,Saimei Shrine,35.0140135,135.6854473,4,5,"Kyoto, Ukyo Ward, Sagayanagidacho, ９","['place_of_worship', 'point_of_interest', 'establishment']"
ChIJR7O_GFIHAWAR2fnP7Bc7Q34,9c0263c57cf86de2c3774e604801377d8ae4e740,Saiko-in Temple,35.0076551,135.6807118,4.3,9,"Kyoto, Nishikyo Ward, 嵐山田町1","['place_of_worship', 'point_of_interest', 'establishment']"
