place_id,id,name,lat,lng,rating,user_ratings_total,vicinity,types
ChIJ_8cZYj8PAWARuAR0cVnq2_E,09146fccf60f0d4feee3b55a04267ffb07576cc2,Gokurakuji Temple,34.971052,135.771121,5,2,"Higashiyama Ward, Kyoto","['place_of_worship', 'point_of_interest', 'establishment']"
ChIJG6ql7xMPAWARdP6yxmOiFKY,46bc4418ffd0f96dee519cd8282591b3c58cefee,Sekihoji Temple,34.9647023,135.7751093,4.2,61,"26 Fukakusa Sekihoji Yamacho, Fushimi Ward, Kyoto","['place_of_worship', 'point_of_interest', 'establishment']"
ChIJmV8nuz8PAWARbSkWrJmt_ZI,4227eda930662fc2dc873c8602252939d4229265,Fushimimyokenji Temple,34.97037400000001,135.772704,4,4,"85-1 Fukakusa Kaidocho, Fushimi Ward, Kyoto","['place_of_worship', 'point_of_interest', 'establishment']"
ChIJ5atA0hMPAWARYNlA2j7JPpw,7ae251dc80c95645c0cd40aa839c1ff4b7a2d85b,Hotoji Temple,34.9633319,135.7755594,3.9,57,"32 Fukakusa Hotoji Yamacho, Fushimi Ward, Kyoto","['place_of_worship', 'point_of_interest', 'establishment']"
ChIJIW0uPRUPAWAR6eI6dRzKGns,2b0af6b727edded9a5c3e148c7a2b82630e527c0,Fushimi Inari Taisha,34.9671402,135.7726717,4.6,20179,"68 Fukakusa Yabunouchicho, Fushimi Ward, Kyoto","['place_of_worship', 'point_of_interest', 'establishment']"
ChIJ5ykBDBYPAWARzJ6YiJNsGsI,3c6ae794c444fa3bdb6c41ea9b5d38a961acf6e9,Araki-Jinja Shrine,34.969457,135.776111,4.3,241,"12-3 Fukakusa Kaidoguchicho, Fushimi Ward, Kyoto","['place_of_worship', 'point_of_interest', 'establishment']"
ChIJu70HthYPAWARiNgEFBlZL90,e8aacbfeaeeabc5201eb60434f0fbd5c15696a5c,Fushimi Kandakara Shrine,34.9665384,135.7769538,4.5,200,"15 Fukakusa Sasayamacho, Fushimi Ward, Kyoto","['place_of_worship', 'point_of_interest', 'establishment']"
ChIJ4T_0-hQPAWARpmWTmTp7aBs,e9fbb862170edd87fac8b277fb0e4cdd28375387,Azumamaro Shrine,34.9667489,135.7728229,4,69,"36 Fukakusa Yabunouchicho, Fushimi Ward, Kyoto","['place_of_worship', 'point_of_interest', 'establishment']"
ChIJORXkShUPAWARuyznptCFyvY,4e5c677116f719450d7969998717a8a827932f3c,Great Torii of Fushimi Inari Shrine,34.967047,135.771153,4.5,64,"Kyoto, Fushimi Ward, 深草薮之内町68番地","['place_of_worship', 'point_of_interest', 'establishment']"
ChIJwQxXBRUPAWARdiEFwqwbCJU,a87b04812bb1a0413a71fd6e654553a4f6e371ac,Fushimiinari Shrine Gehaiden,34.9671465,135.7728657,4.2,10,"58 Fukakusa Yabunouchicho, Fushimi Ward, Kyoto","['place_of_worship', 'point_of_interest', 'establishment']"
ChIJZU1DBxUPAWAROoit5pPWAMA,d914fa4a94fc0ba1d05f98b0027c427f8056ff7f,Fushimiinari Shrine Honden,34.9671721,135.7733887,4.2,15,"68 Fukakusa Yabunouchicho, Fushimi Ward, Kyoto","['place_of_worship', 'point_of_interest', 'establishment']"
ChIJGVpMOBQPAWARF96_WA-XIl0,c4a9bcf4687c937e2cf349b3ce34d52fe24b7c5c,Fushimi Inari Taisha Shrine Senbontorii,34.966968,135.7748225,4.6,918,"68番地 Fukakusa Yabunouchicho, Fushimi Ward, Kyoto","['place_of_worship', 'point_of_interest', 'establishment']"
ChIJ2yKDsj0PAWARFSKykDEzSzw,e7ce8bebb5b7848dcaf3ed844db0265946470dc0,Kyotofushimiinari Shrine Gishikiden,34.9675278,135.7718611,3,1,"Fukakusa Yabunouchicho, Fushimi Ward, Kyoto","['place_of_worship', 'point_of_interest', 'establishment']"
ChIJ4_ZEpRUPAWARu-gSzhMsYyo,ecfe64f2acbbcdfc7b0ee60cfc5d307d5bb076e6,Nōsatsusho,34.9677039,135.7739695,4,4,"44 Fukakusa Kaidocho, Fushimi Ward, Kyoto","['place_of_worship', 'point_of_interest', 'establishment']"
ChIJGQ_C1RQPAWARhg731seuzH4,d0b7c4d43edcfbc8801dd70c2aaf3a5d145e331f,Sesshuin Temple,34.965804,135.7712962,3.8,6,"11 Chome-106 Fukakusasu Jikaibashi, Fushimi Ward, Kyoto","['place_of_worship', 'point_of_interest', 'establishment']"
ChIJ5atA0hMPAWARCnusvysiN70,ffb409b5604292cd91b4d6bb29fb75fd1bda2b61,Fukakusa Yamanaosho Temple,34.9628976,135.7744084,2,1,"2 Fukakusa Hotoji Yamacho, Fushimi Ward, Kyoto","['place_of_worship', 'point_of_interest', 'establishment']"
ChIJ_xOg9c0PAWARRxkkdkPSP7g,d2a54b44aef308861cce6c942ff76fb9871d0ed0,Fushimiinari Shrine Management Office,34.9673512,135.7731834,3.3,4,"68 Fukakusa Yabunouchicho, Fushimi Ward, Kyoto","['place_of_worship', 'point_of_interest', 'establishment']"
ChIJVVWpHhQPAWARZKzVefKSo34,1e3111bfea74fabd8d95c6d478590f08b24db678,Fushimi Inari-taisha Okusha Hohaisho,34.9665288,135.7755557,4.4,67,"Inariyamakanyuchi, Fushimi Ward, Kyoto","['place_of_worship', 'point_of_interest', 'establishment']"
ChIJq6qrRBgPAWARrToxg6gcTaE,c5a6e86d43ed96805d791fb2a6d7329511827db2,Shirataki-sha Shrine,34.9717409,135.7823062,3.6,7,"5 Inariyamakanyuchi, Fushimi Ward, Kyoto","['place_of_worship', 'point_of_interest', 'establishment']"
ChIJn0RjixcPAWAR5yE7PtFBeD8,b1c97f07d0f2a1ab49553dee8c6850843b13b16e,Fushimi Inari Taisha Miyuki Houhaisho,34.97099,135.780257,4.6,11,"Inariyamakanyuchi, Fushimi Ward, Kyoto","['place_of_worship', 'point_of_interest', 'establishment']"
ChIJAZaJaNsPAWAR75qxMFzFLDk,dc4687f799d843108dd7156dda7ca8c22899c06c,Fushimiinari Shrine,34.96718810000001,135.7732651,5,4,"68 Fukakusa Yabunouchicho, Fushimi Ward, Kyoto","['place_of_worship', 'point_of_interest', 'establishment']"
ChIJc0XbDhYPAWARc4N8gpayIlM,1dc6d2414fb982c09e6bdb244f7b3cf5b9b1c022,Fushimi Toyokawa Inari Shrine Hongu,34.9698425,135.776643,3.9,14,"12 Fukakusa Kaidoguchicho, Fushimi Ward, Kyoto","['place_of_worship', 'point_of_interest', 'establishment']"
